[
    {
      "id":1,
      "name":"Banorte 20 de Noviembre",
      "latitude":24.026714,
      "longitude":-104.658984,
      "latitudeDelta":0.095,
      "longitudeDelta":0.0521,
      "color":"red"
    },
    {
      "id":2,
      "name":"Banorte Francisco Villa",
      "latitude":24.036606,
      "longitude":-104.633869,
      "latitudeDelta":0.095,
      "longitudeDelta":0.0521,
      "color":"red"
    },
    {
      "id":3,
      "name":"Banorte Blvd. Domingo Arrieta",
      "latitude":24.00599604999418,
      "longitude":-104.66211077630412,
      "latitudeDelta":0.095,
      "longitudeDelta":0.0521,
      "color":"red"
    },
    {
      "id":4,
      "name":"Banorte Paseo Durango",
      "latitude":24.03560982388837,
      "longitude":-104.65080869408489,
      "latitudeDelta":0.095,
      "longitudeDelta":0.0521,
      "color":"red"
    },
    {
      "id":5,
      "name":"Banco Azteca Jardines de Durango",
      "latitude":24.04688517648489,
      "longitude":-104.63123022975225,
      "latitudeDelta":0.095,
      "longitudeDelta":0.0521,
      "color":"green"
    },
    {
      "id":6,
      "name":"Banco Azteca Cd. Industrial",
      "latitude":24.047610960478192,
      "longitude":-104.62185599338247,
      "latitudeDelta":0.095,
      "longitudeDelta":0.0521,
      "color":"green"
    },
    {
      "id":7,
      "name":"Banco BBVA Francisco Villa",
      "latitude":24.0658561,
      "longitude":-104.7241826,
      "latitudeDelta":0.095,
      "longitudeDelta":0.0521,
      "color":"blue"
    },
    {
      "id":8,
      "name":"Banco BBVA Blvd. José María Patoni",
      "latitude":24.0658561,
      "longitude":-104.7241826,
      "latitudeDelta":0.095,
      "longitudeDelta":0.0521,
      "color":"blue"
    },
    {
      "id":9,
      "name":"Banco BBVA Blvd. Felipe Pescador",
      "latitude":24.047610960478192,
      "longitude":-104.62185599338247,
      "latitudeDelta":0.095,
      "longitudeDelta":0.0521,
      "color":"blue"
    },
    {
      "id":10,
      "name":"Banco BBVA Real del Mezquital",
      "latitude":24.047610960478192,
      "longitude":-104.62185599338247,
      "latitudeDelta":0.095,
      "longitudeDelta":0.0521,
      "color":"blue"
    },
    {
      "id":11,
      "name":"Banco BBVA 20 Noviembre",
      "latitude":24.0658561,
      "longitude":-104.7241826,
      "latitudeDelta":0.095,
      "longitudeDelta":0.0521,
      "color":"blue"
    },
    {
      "id":12,
      "name":"Banco BBVA Blvd. Domingo Arrieta",
      "latitude":24.0658561,
      "longitude":-104.7241826,
      "latitudeDelta":0.095,
      "longitudeDelta":0.0521,
      "color":"blue"
    }
  ]